"名称","住所","URL","コメント","電話番号","写真","担当課","避難対象の災害","経度","緯度","分類"
"指定避難所（桜丘小学校）","仙台市青葉区桜ケ丘8-1-1","http://www.city.sendai.jp/anzensuishin/kurashi/anzen/saigaitaisaku/hinanjo/doko.html","避難のための広場と建物を備えた施設で、市立の小学校、中学校、高等学校等が指定されています。","","/sendaicity-html/pict/80101_001.jpg","危機管理局防災計画課","大雨（洪水・土砂）、地震","140.849533627319","38.3036619523415","指定避難所"
"指定避難所（中山中学校）","仙台市青葉区中山6-16-1","http://www.city.sendai.jp/anzensuishin/kurashi/anzen/saigaitaisaku/hinanjo/doko.html","避難のための広場と建物を備えた施設で、市立の小学校、中学校、高等学校等が指定されています。","","/sendaicity-html/pict/80101_001.jpg","危機管理局防災計画課","大雨（洪水・土砂）、地震","140.839524354082","38.2963458461128","指定避難所"
"指定避難所（中山小学校）","仙台市青葉区中山1-6-1","http://www.city.sendai.jp/anzensuishin/kurashi/anzen/saigaitaisaku/hinanjo/doko.html","避難のための広場と建物を備えた施設で、市立の小学校、中学校、高等学校等が指定されています。","","/sendaicity-html/pict/80101_001.jpg","危機管理局防災計画課","大雨（洪水・土砂）、地震","140.850684357365","38.2917551613494","指定避難所"
"指定避難所（北仙台中学校）","仙台市青葉区東勝山2-31-1","http://www.city.sendai.jp/anzensuishin/kurashi/anzen/saigaitaisaku/hinanjo/doko.html","避難のための広場と建物を備えた施設で、市立の小学校、中学校、高等学校等が指定されています。","","/sendaicity-html/pict/80101_001.jpg","危機管理局防災計画課","大雨（洪水・土砂）、地震","140.863521181159","38.2927780924771","指定避難所"
"指定避難所（台原小学校）","仙台市青葉区台原5-16-1","http://www.city.sendai.jp/anzensuishin/kurashi/anzen/saigaitaisaku/hinanjo/doko.html","避難のための広場と建物を備えた施設で、市立の小学校、中学校、高等学校等が指定されています。","","/sendaicity-html/pict/80101_001.jpg","危機管理局防災計画課","大雨（洪水・土砂）、地震","140.879837806355","38.2859162814324","指定避難所"
"指定避難所（旭丘小学校）","仙台市青葉区旭ケ丘3-27-1","http://www.city.sendai.jp/anzensuishin/kurashi/anzen/saigaitaisaku/hinanjo/doko.html","避難のための広場と建物を備えた施設で、市立の小学校、中学校、高等学校等が指定されています。","","/sendaicity-html/pict/80101_001.jpg","危機管理局防災計画課","大雨（洪水・土砂）、地震","140.885966128939","38.2967073503262","指定避難所"
"指定避難所（荒巻小学校）","仙台市青葉区荒巻神明町21-1","http://www.city.sendai.jp/anzensuishin/kurashi/anzen/saigaitaisaku/hinanjo/doko.html","避難のための広場と建物を備えた施設で、市立の小学校、中学校、高等学校等が指定されています。","","/sendaicity-html/pict/80101_001.jpg","危機管理局防災計画課","大雨（洪水・土砂）、地震","140.857178483932","38.2866033754275","指定避難所"
"指定避難所（国見小学校）","仙台市青葉区国見2-16-1","http://www.city.sendai.jp/anzensuishin/kurashi/anzen/saigaitaisaku/hinanjo/doko.html","避難のための広場と建物を備えた施設で、市立の小学校、中学校、高等学校等が指定されています。","","/sendaicity-html/pict/80101_001.jpg","危機管理局防災計画課","大雨（洪水・土砂）、地震","140.844652714264","38.2768176691338","指定避難所"
"指定避難所（三条中学校）","仙台市青葉区三条町3-1","http://www.city.sendai.jp/anzensuishin/kurashi/anzen/saigaitaisaku/hinanjo/doko.html","避難のための広場と建物を備えた施設で、市立の小学校、中学校、高等学校等が指定されています。","","/sendaicity-html/pict/80101_001.jpg","危機管理局防災計画課","大雨（洪水・土砂）、地震","140.85430126596","38.2804511085905","指定避難所"
"指定避難所（通町小学校）","仙台市青葉区通町1-1-1","http://www.city.sendai.jp/anzensuishin/kurashi/anzen/saigaitaisaku/hinanjo/doko.html","避難のための広場と建物を備えた施設で、市立の小学校、中学校、高等学校等が指定されています。","","/sendaicity-html/pict/80101_001.jpg","危機管理局防災計画課","大雨（洪水・土砂）、地震","140.863097215277","38.2767409223184","指定避難所"
"指定避難所（小松島小学校）","仙台市青葉区小松島2-1-1","http://www.city.sendai.jp/anzensuishin/kurashi/anzen/saigaitaisaku/hinanjo/doko.html","避難のための広場と建物を備えた施設で、市立の小学校、中学校、高等学校等が指定されています。","","/sendaicity-html/pict/80101_001.jpg","危機管理局防災計画課","大雨（洪水・土砂）、地震","140.888892608996","38.2804671657691","指定避難所"
"指定避難所（八幡小学校）","仙台市青葉区八幡2-9-1","http://www.city.sendai.jp/anzensuishin/kurashi/anzen/saigaitaisaku/hinanjo/doko.html","避難のための広場と建物を備えた施設で、市立の小学校、中学校、高等学校等が指定されています。","","/sendaicity-html/pict/80101_001.jpg","危機管理局防災計画課","大雨（洪水・土砂）、地震","140.853187877655","38.2712353623937","指定避難所"
"指定避難所（木町通小学校）","仙台市青葉区木町通1-7-36","http://www.city.sendai.jp/anzensuishin/kurashi/anzen/saigaitaisaku/hinanjo/doko.html","避難のための広場と建物を備えた施設で、市立の小学校、中学校、高等学校等が指定されています。","","/sendaicity-html/pict/80101_001.jpg","危機管理局防災計画課","大雨（洪水・土砂）、地震","140.863489746072","38.2709295474779","指定避難所"
"指定避難所（上杉山中学校）","仙台市青葉区上杉6-7-1","http://www.city.sendai.jp/anzensuishin/kurashi/anzen/saigaitaisaku/hinanjo/doko.html","避難のための広場と建物を備えた施設で、市立の小学校、中学校、高等学校等が指定されています。","","/sendaicity-html/pict/80101_001.jpg","危機管理局防災計画課","大雨（洪水・土砂）（2階以上）、地震","140.874211757079","38.2788359107271","指定避難所"
"指定避難所（五城中学校）","仙台市青葉区東照宮1-3-1","http://www.city.sendai.jp/anzensuishin/kurashi/anzen/saigaitaisaku/hinanjo/doko.html","避難のための広場と建物を備えた施設で、市立の小学校、中学校、高等学校等が指定されています。","","/sendaicity-html/pict/80101_001.jpg","危機管理局防災計画課","大雨（洪水・土砂）、地震","140.881977016756","38.2793530507327","指定避難所"
"指定避難所（片平丁小学校）","仙台市青葉区片平1-7-1","http://www.city.sendai.jp/anzensuishin/kurashi/anzen/saigaitaisaku/hinanjo/doko.html","避難のための広場と建物を備えた施設で、市立の小学校、中学校、高等学校等が指定されています。","","/sendaicity-html/pict/80101_001.jpg","危機管理局防災計画課","大雨（洪水・土砂）、地震","140.868989170878","38.2560819352993","指定避難所"
"指定避難所（折立小学校）","仙台市青葉区折立4-2-1","http://www.city.sendai.jp/anzensuishin/kurashi/anzen/saigaitaisaku/hinanjo/doko.html","避難のための広場と建物を備えた施設で、市立の小学校、中学校、高等学校等が指定されています。","","/sendaicity-html/pict/80101_001.jpg","危機管理局防災計画課","大雨（洪水・土砂）、地震
※大雨時は初動で開設されません。","140.808144141704","38.2607022314524","指定避難所"
"指定避難所（川平小学校）","仙台市青葉区川平3-36-1","http://www.city.sendai.jp/anzensuishin/kurashi/anzen/saigaitaisaku/hinanjo/doko.html","避難のための広場と建物を備えた施設で、市立の小学校、中学校、高等学校等が指定されています。","","/sendaicity-html/pict/80101_001.jpg","危機管理局防災計画課","大雨（洪水・土砂）、地震","140.837885059891","38.3055836733421","指定避難所"
"指定避難所（東六番丁小学校）","仙台市青葉区宮町1-2-1","http://www.city.sendai.jp/anzensuishin/kurashi/anzen/saigaitaisaku/hinanjo/doko.html","避難のための広場と建物を備えた施設で、市立の小学校、中学校、高等学校等が指定されています。","","/sendaicity-html/pict/80101_001.jpg","危機管理局防災計画課","大雨（洪水・土砂）、地震
※大雨時は初動で開設されません。","140.883886316711","38.2657514325221","指定避難所"
"指定避難所（北六番丁小学校）","仙台市青葉区宮町4-4-17","http://www.city.sendai.jp/anzensuishin/kurashi/anzen/saigaitaisaku/hinanjo/doko.html","避難のための広場と建物を備えた施設で、市立の小学校、中学校、高等学校等が指定されています。","","/sendaicity-html/pict/80101_001.jpg","危機管理局防災計画課","大雨（洪水・土砂）（2階以上）、地震","140.882185630573","38.2759422161004","指定避難所"
"指定避難所（広瀬小学校）","仙台市青葉区下愛子字二本松40","http://www.city.sendai.jp/anzensuishin/kurashi/anzen/saigaitaisaku/hinanjo/doko.html","避難のための広場と建物を備えた施設で、市立の小学校、中学校、高等学校等が指定されています。","","/sendaicity-html/pict/80101_001.jpg","危機管理局防災計画課","大雨（洪水・土砂・ため池）（2階以上）、地震","140.7763967017","38.2712719761763","指定避難所"
"指定避難所（広瀬中学校）","仙台市青葉区愛子中央1-9-1","http://www.city.sendai.jp/anzensuishin/kurashi/anzen/saigaitaisaku/hinanjo/doko.html","避難のための広場と建物を備えた施設で、市立の小学校、中学校、高等学校等が指定されています。","","/sendaicity-html/pict/80101_001.jpg","危機管理局防災計画課","大雨（洪水・土砂）、地震","140.762675213232","38.27347007755","指定避難所"
"指定避難所（上愛子小学校）","仙台市青葉区上愛子字白沢14","http://www.city.sendai.jp/anzensuishin/kurashi/anzen/saigaitaisaku/hinanjo/doko.html","避難のための広場と建物を備えた施設で、市立の小学校、中学校、高等学校等が指定されています。","","/sendaicity-html/pict/80101_001.jpg","危機管理局防災計画課","大雨（洪水・土砂）、地震","140.693114518061","38.2846988932769","指定避難所"
"指定避難所（旧作並小学校）","仙台市青葉区作並字北子原6","http://www.city.sendai.jp/anzensuishin/kurashi/anzen/saigaitaisaku/hinanjo/doko.html","避難のための広場と建物を備えた施設で、市立の小学校、中学校、高等学校等が指定されています。","","/sendaicity-html/pict/80101_001.jpg","危機管理局防災計画課","大雨（洪水・土砂）、地震","140.635855201545","38.3164342557981","指定避難所"
"指定避難所（旧作並小学校新川分校）","仙台市青葉区新川字北野尻34","http://www.city.sendai.jp/anzensuishin/kurashi/anzen/saigaitaisaku/hinanjo/doko.html","避難のための広場と建物を備えた施設で、市立の小学校、中学校、高等学校等が指定されています。","","/sendaicity-html/pict/80101_001.jpg","危機管理局防災計画課","大雨（洪水・土砂）、地震","140.633084606278","38.3035294068978","指定避難所"
"指定避難所（旧大倉小学校）","仙台市青葉区大倉字墓前1","http://www.city.sendai.jp/anzensuishin/kurashi/anzen/saigaitaisaku/hinanjo/doko.html","避難のための広場と建物を備えた施設で、市立の小学校、中学校、高等学校等が指定されています。","","/sendaicity-html/pict/80101_001.jpg","危機管理局防災計画課","大雨（洪水・土砂）、地震","140.697841392895","38.3341676097111","指定避難所"
"指定避難所（川前小学校）","仙台市青葉区芋沢字赤坂16","http://www.city.sendai.jp/anzensuishin/kurashi/anzen/saigaitaisaku/hinanjo/doko.html","避難のための広場と建物を備えた施設で、市立の小学校、中学校、高等学校等が指定されています。","","/sendaicity-html/pict/80101_001.jpg","危機管理局防災計画課","大雨（洪水・土砂）、地震
※大雨時は初動で開設されません。","140.747018281238","38.290215796278","指定避難所"
"指定避難所（大沢小学校）","仙台市青葉区芋沢字長坂22","http://www.city.sendai.jp/anzensuishin/kurashi/anzen/saigaitaisaku/hinanjo/doko.html","避難のための広場と建物を備えた施設で、市立の小学校、中学校、高等学校等が指定されています。","","/sendaicity-html/pict/80101_001.jpg","危機管理局防災計画課","大雨（洪水・土砂）、地震","140.773251702519","38.2993293518563","指定避難所"
"指定避難所（大沢中学校）","仙台市青葉区赤坂1-2-1","http://www.city.sendai.jp/anzensuishin/kurashi/anzen/saigaitaisaku/hinanjo/doko.html","避難のための広場と建物を備えた施設で、市立の小学校、中学校、高等学校等が指定されています。","","/sendaicity-html/pict/80101_001.jpg","危機管理局防災計画課","大雨（洪水・土砂）、地震","140.750420660887","38.2916212921446","指定避難所"
"指定避難所（吉成小学校）","仙台市青葉区吉成1-12-2","http://www.city.sendai.jp/anzensuishin/kurashi/anzen/saigaitaisaku/hinanjo/doko.html","避難のための広場と建物を備えた施設で、市立の小学校、中学校、高等学校等が指定されています。","","/sendaicity-html/pict/80101_001.jpg","危機管理局防災計画課","大雨（洪水・土砂）、地震
※大雨時は初動で開設されません。","140.825248845685","38.2903711174476","指定避難所"
"指定避難所（吉成中学校）","仙台市青葉区吉成1-12-1","http://www.city.sendai.jp/anzensuishin/kurashi/anzen/saigaitaisaku/hinanjo/doko.html","避難のための広場と建物を備えた施設で、市立の小学校、中学校、高等学校等が指定されています。","","/sendaicity-html/pict/80101_001.jpg","危機管理局防災計画課","大雨（洪水・土砂）、地震","140.825079542005","38.2893017905224","指定避難所"
"指定避難所（南吉成小学校）","仙台市青葉区南吉成5-18-1","http://www.city.sendai.jp/anzensuishin/kurashi/anzen/saigaitaisaku/hinanjo/doko.html","避難のための広場と建物を備えた施設で、市立の小学校、中学校、高等学校等が指定されています。","","/sendaicity-html/pict/80101_001.jpg","危機管理局防災計画課","大雨（洪水・土砂）、地震","140.813816837992","38.2912290954886","指定避難所"
"指定避難所（第一中学校）","仙台市青葉区八幡4-16-1","http://www.city.sendai.jp/anzensuishin/kurashi/anzen/saigaitaisaku/hinanjo/doko.html","避難のための広場と建物を備えた施設で、市立の小学校、中学校、高等学校等が指定されています。","","/sendaicity-html/pict/80101_001.jpg","危機管理局防災計画課","大雨（洪水・土砂）、地震","140.846541549652","38.2725848879441","指定避難所"
"指定避難所（第二中学校）","仙台市青葉区木町通2-4-1","http://www.city.sendai.jp/anzensuishin/kurashi/anzen/saigaitaisaku/hinanjo/doko.html","避難のための広場と建物を備えた施設で、市立の小学校、中学校、高等学校等が指定されています。","","/sendaicity-html/pict/80101_001.jpg","危機管理局防災計画課","大雨（洪水・土砂）、地震
※大雨時は初動で開設されません。","140.863819550842","38.2735884863749","指定避難所"
"指定避難所（栗生小学校）","仙台市青葉区栗生6-6-1","http://www.city.sendai.jp/anzensuishin/kurashi/anzen/saigaitaisaku/hinanjo/doko.html","避難のための広場と建物を備えた施設で、市立の小学校、中学校、高等学校等が指定されています。","","/sendaicity-html/pict/80101_001.jpg","危機管理局防災計画課","大雨（洪水・土砂・ため池）（２階以上）、地震","140.786173606891","38.2674950516711","指定避難所"
"指定避難所（上杉山通小学校）","仙台市青葉区上杉1-10-1","http://www.city.sendai.jp/anzensuishin/kurashi/anzen/saigaitaisaku/hinanjo/doko.html","避難のための広場と建物を備えた施設で、市立の小学校、中学校、高等学校等が指定されています。","","/sendaicity-html/pict/80101_001.jpg","危機管理局防災計画課","大雨（洪水・土砂）、地震
※大雨時は初動で開設されません。","140.873492969072","38.2715086986366","指定避難所"
"指定避難所（北仙台小学校）","仙台市青葉区東勝山3-6-1","http://www.city.sendai.jp/anzensuishin/kurashi/anzen/saigaitaisaku/hinanjo/doko.html","避難のための広場と建物を備えた施設で、市立の小学校、中学校、高等学校等が指定されています。","","/sendaicity-html/pict/80101_001.jpg","危機管理局防災計画課","大雨（洪水・土砂）、地震
※大雨時は初動で開設されません。","140.861101821939","38.2972800517764","指定避難所"
"指定避難所（桜丘中学校）","仙台市青葉区桜ケ丘8-2-1","http://www.city.sendai.jp/anzensuishin/kurashi/anzen/saigaitaisaku/hinanjo/doko.html","避難のための広場と建物を備えた施設で、市立の小学校、中学校、高等学校等が指定されています。","","/sendaicity-html/pict/80101_001.jpg","危機管理局防災計画課","大雨（洪水・土砂）、地震
※大雨時は初動で開設されません。","140.851563910164","38.3041258521845","指定避難所"
"指定避難所（立町小学校）","仙台市青葉区立町8-1","http://www.city.sendai.jp/anzensuishin/kurashi/anzen/saigaitaisaku/hinanjo/doko.html","避難のための広場と建物を備えた施設で、市立の小学校、中学校、高等学校等が指定されています。","","/sendaicity-html/pict/80101_001.jpg","危機管理局防災計画課","大雨（洪水・土砂）、地震","140.863703486575","38.2617673451797","指定避難所"
"指定避難所（五橋中学校）","仙台市青葉区五橋2-2-1","http://www.city.sendai.jp/anzensuishin/kurashi/anzen/saigaitaisaku/hinanjo/doko.html","避難のための広場と建物を備えた施設で、市立の小学校、中学校、高等学校等が指定されています。","","/sendaicity-html/pict/80101_001.jpg","危機管理局防災計画課","大雨（洪水・土砂）、地震","140.879151963284","38.2520521972037","指定避難所"
"指定避難所（台原中学校）","仙台市青葉区台原5-19-1","http://www.city.sendai.jp/anzensuishin/kurashi/anzen/saigaitaisaku/hinanjo/doko.html","避難のための広場と建物を備えた施設で、市立の小学校、中学校、高等学校等が指定されています。","","/sendaicity-html/pict/80101_001.jpg","危機管理局防災計画課","大雨（洪水・土砂）、地震","140.880568035008","38.286980147086","指定避難所"
"指定避難所（南吉成中学校）","仙台市青葉区南吉成5-18-2","http://www.city.sendai.jp/anzensuishin/kurashi/anzen/saigaitaisaku/hinanjo/doko.html","避難のための広場と建物を備えた施設で、市立の小学校、中学校、高等学校等が指定されています。","","/sendaicity-html/pict/80101_001.jpg","危機管理局防災計画課","大雨（洪水・土砂）、地震
※大雨時は初動で開設されません。","140.812208728708","38.2914762596113","指定避難所"
"指定避難所（折立中学校）","仙台市青葉区折立3-19-1","http://www.city.sendai.jp/anzensuishin/kurashi/anzen/saigaitaisaku/hinanjo/doko.html","避難のための広場と建物を備えた施設で、市立の小学校、中学校、高等学校等が指定されています。","","/sendaicity-html/pict/80101_001.jpg","危機管理局防災計画課","大雨（洪水・土砂・ため池）（２階以上）、地震","140.807632910197","38.2659737729791","指定避難所"
"指定避難所（仙台高等学校）","仙台市青葉区国見6-52-1","http://www.city.sendai.jp/anzensuishin/kurashi/anzen/saigaitaisaku/hinanjo/doko.html","避難のための広場と建物を備えた施設で、市立の小学校、中学校、高等学校等が指定されています。","","/sendaicity-html/pict/80101_001.jpg","危機管理局防災計画課","大雨（洪水・土砂）、地震","140.833812241501","38.2811361751747","指定避難所"
"指定避難所（仙台青陵中等教育学校）","仙台市青葉区国見ケ丘7-144","http://www.city.sendai.jp/anzensuishin/kurashi/anzen/saigaitaisaku/hinanjo/doko.html","避難のための広場と建物を備えた施設で、市立の小学校、中学校、高等学校等が指定されています。","","/sendaicity-html/pict/80101_001.jpg","危機管理局防災計画課","大雨（洪水・土砂）、地震","140.835897534568","38.2886576755829","指定避難所"
"指定避難所（東二番丁小学校）","仙台市青葉区一番町2-1-4","http://www.city.sendai.jp/anzensuishin/kurashi/anzen/saigaitaisaku/hinanjo/doko.html","避難のための広場と建物を備えた施設で、市立の小学校、中学校、高等学校等が指定されています。","","/sendaicity-html/pict/80101_001.jpg","危機管理局防災計画課","大雨（洪水・土砂）、地震
※大雨時は初動で開設されません。","140.87467986894","38.2594375009887","指定避難所"
"指定避難所（広陵中学校）","仙台市青葉区熊ケ根字石積1-2","http://www.city.sendai.jp/anzensuishin/kurashi/anzen/saigaitaisaku/hinanjo/doko.html","避難のための広場と建物を備えた施設で、市立の小学校、中学校、高等学校等が指定されています。","","/sendaicity-html/pict/80101_001.jpg","危機管理局防災計画課","大雨（洪水・土砂）、地震","140.682229930533","38.2995680482421","指定避難所"
"指定避難所（幸町小学校）","仙台市宮城野区幸町2-19-1","http://www.city.sendai.jp/anzensuishin/kurashi/anzen/saigaitaisaku/hinanjo/doko.html","避難のための広場と建物を備えた施設で、市立の小学校、中学校、高等学校等が指定されています。","","/sendaicity-html/pict/80101_001.jpg","危機管理局防災計画課","大雨（洪水・土砂）（2階以上）、地震","140.898014046739","38.2765623128349","指定避難所"
"指定避難所（鶴谷中学校）","仙台市宮城野区鶴ケ谷5-24","http://www.city.sendai.jp/anzensuishin/kurashi/anzen/saigaitaisaku/hinanjo/doko.html","避難のための広場と建物を備えた施設で、市立の小学校、中学校、高等学校等が指定されています。","","/sendaicity-html/pict/80101_001.jpg","危機管理局防災計画課","大雨（洪水・土砂）、地震","140.914805998085","38.2919192436037","指定避難所"
"指定避難所（東仙台中学校）","仙台市宮城野区東仙台2-16-1","http://www.city.sendai.jp/anzensuishin/kurashi/anzen/saigaitaisaku/hinanjo/doko.html","避難のための広場と建物を備えた施設で、市立の小学校、中学校、高等学校等が指定されています。","","/sendaicity-html/pict/80101_001.jpg","危機管理局防災計画課","大雨（洪水・土砂）、地震","140.91759779152","38.2772518076727","指定避難所"
"指定避難所（榴岡小学校）","仙台市宮城野区榴ケ岡103-2","http://www.city.sendai.jp/anzensuishin/kurashi/anzen/saigaitaisaku/hinanjo/doko.html","避難のための広場と建物を備えた施設で、市立の小学校、中学校、高等学校等が指定されています。","","/sendaicity-html/pict/80101_001.jpg","危機管理局防災計画課","大雨（洪水・土砂）、地震
※大雨時は初動で開設されません。","140.890707987624","38.2613077436374","指定避難所"
"指定避難所（仙台工業高等学校）","仙台市宮城野区東宮城野3-1","http://www.city.sendai.jp/anzensuishin/kurashi/anzen/saigaitaisaku/hinanjo/doko.html","避難のための広場と建物を備えた施設で、市立の小学校、中学校、高等学校等が指定されています。","","/sendaicity-html/pict/80101_001.jpg","危機管理局防災計画課","大雨（洪水・土砂）、地震
※大雨時は初動で開設されません。","140.917568606843","38.2605306521903","指定避難所"
"指定避難所（燕沢小学校）","仙台市宮城野区燕沢東3-8-1","http://www.city.sendai.jp/anzensuishin/kurashi/anzen/saigaitaisaku/hinanjo/doko.html","避難のための広場と建物を備えた施設で、市立の小学校、中学校、高等学校等が指定されています。","","/sendaicity-html/pict/80101_001.jpg","危機管理局防災計画課","大雨（洪水・土砂）、地震","140.929781605044","38.2881925239776","指定避難所"
"指定避難所（新田小学校）","仙台市宮城野区新田４－３０－１","http://www.city.sendai.jp/anzensuishin/kurashi/anzen/saigaitaisaku/hinanjo/doko.html","避難のための広場と建物を備えた施設で、市立の小学校、中学校、高等学校等が指定されています。","","/sendaicity-html/pict/80101_001.jpg","危機管理局防災計画課","洪水、土石流、がけ崩れ・地すべり、地震","140.928774084041","38.2760188715984","指定避難所"
"指定避難所（岩切小学校）","仙台市宮城野区岩切字今市東1-2","http://www.city.sendai.jp/anzensuishin/kurashi/anzen/saigaitaisaku/hinanjo/doko.html","避難のための広場と建物を備えた施設で、市立の小学校、中学校、高等学校等が指定されています。","","/sendaicity-html/pict/80101_001.jpg","危機管理局防災計画課","大雨（洪水・土砂）（2階以上）、地震","140.942110054694","38.2992919874054","指定避難所"
"指定避難所（岩切中学校）","仙台市宮城野区岩切字三所南23-2","http://www.city.sendai.jp/anzensuishin/kurashi/anzen/saigaitaisaku/hinanjo/doko.html","避難のための広場と建物を備えた施設で、市立の小学校、中学校、高等学校等が指定されています。","","/sendaicity-html/pict/80101_001.jpg","危機管理局防災計画課","大雨（洪水・土砂）（2階以上）、地震","140.944565268039","38.301416922821","指定避難所"
"指定避難所（高砂小学校）","仙台市宮城野区福田町1-11-1","http://www.city.sendai.jp/anzensuishin/kurashi/anzen/saigaitaisaku/hinanjo/doko.html","避難のための広場と建物を備えた施設で、市立の小学校、中学校、高等学校等が指定されています。","","/sendaicity-html/pict/80101_001.jpg","危機管理局防災計画課","大雨（洪水・土砂）（2階以上）、地震、津波","140.95799864457","38.2733561262032","指定避難所"
"指定避難所（福室小学校）","仙台市宮城野区福室5-16-1","http://www.city.sendai.jp/anzensuishin/kurashi/anzen/saigaitaisaku/hinanjo/doko.html","避難のための広場と建物を備えた施設で、市立の小学校、中学校、高等学校等が指定されています。","","/sendaicity-html/pict/80101_001.jpg","危機管理局防災計画課","大雨（洪水・土砂）（2階以上）、地震、津波（2階以上）","140.971822392125","38.2802067031073","指定避難所"
"指定避難所（中野栄小学校）","仙台市宮城野区栄3-12-1","http://www.city.sendai.jp/anzensuishin/kurashi/anzen/saigaitaisaku/hinanjo/doko.html","避難のための広場と建物を備えた施設で、市立の小学校、中学校、高等学校等が指定されています。","","/sendaicity-html/pict/80101_001.jpg","危機管理局防災計画課","大雨（洪水・土砂）（2階以上）、地震、津波（2階以上）","140.982334751075","38.2833403642511","指定避難所"
"指定避難所（岡田小学校）","仙台市宮城野区岡田字北在家67","http://www.city.sendai.jp/anzensuishin/kurashi/anzen/saigaitaisaku/hinanjo/doko.html","避難のための広場と建物を備えた施設で、市立の小学校、中学校、高等学校等が指定されています。","","/sendaicity-html/pict/80101_001.jpg","危機管理局防災計画課","大雨（洪水・土砂）（2階以上）、地震、津波（3階以上）","140.97871933998","38.2564758085693","指定避難所"
"指定避難所（枡江小学校）","仙台市宮城野区枡江15-1","http://www.city.sendai.jp/anzensuishin/kurashi/anzen/saigaitaisaku/hinanjo/doko.html","避難のための広場と建物を備えた施設で、市立の小学校、中学校、高等学校等が指定されています。","","/sendaicity-html/pict/80101_001.jpg","危機管理局防災計画課","大雨（洪水・土砂）、地震","140.904318569962","38.281117560506","指定避難所"
"指定避難所（鶴巻小学校）","仙台市宮城野区鶴巻1-15-1","http://www.city.sendai.jp/anzensuishin/kurashi/anzen/saigaitaisaku/hinanjo/doko.html","避難のための広場と建物を備えた施設で、市立の小学校、中学校、高等学校等が指定されています。","","/sendaicity-html/pict/80101_001.jpg","危機管理局防災計画課","大雨（洪水・土砂）（2階以上）、地震、津波（2階以上）","140.968201006584","38.2630493679046","指定避難所"
"指定避難所（田子小学校）","仙台市宮城野区田子2-1-1","http://www.city.sendai.jp/anzensuishin/kurashi/anzen/saigaitaisaku/hinanjo/doko.html","避難のための広場と建物を備えた施設で、市立の小学校、中学校、高等学校等が指定されています。","","/sendaicity-html/pict/80101_001.jpg","危機管理局防災計画課","大雨（洪水・土砂）（2階以上）、地震、津波","140.961975788222","38.2805642191208","指定避難所"
"指定避難所（幸町南小学校）","仙台市宮城野区幸町5-2-1","http://www.city.sendai.jp/anzensuishin/kurashi/anzen/saigaitaisaku/hinanjo/doko.html","避難のための広場と建物を備えた施設で、市立の小学校、中学校、高等学校等が指定されています。","","/sendaicity-html/pict/80101_001.jpg","危機管理局防災計画課","大雨（洪水・土砂）（2階以上）、地震","140.8994169119","38.2741070612595","指定避難所"
"指定避難所（宮城野小学校）","仙台市宮城野区東宮城野2-1","http://www.city.sendai.jp/anzensuishin/kurashi/anzen/saigaitaisaku/hinanjo/doko.html","避難のための広場と建物を備えた施設で、市立の小学校、中学校、高等学校等が指定されています。","","/sendaicity-html/pict/80101_001.jpg","危機管理局防災計画課","大雨（洪水・土砂）、地震","140.916021564559","38.2608649664381","指定避難所"
"指定避難所（宮城野中学校）","仙台市宮城野区五輪1-4-25","http://www.city.sendai.jp/anzensuishin/kurashi/anzen/saigaitaisaku/hinanjo/doko.html","避難のための広場と建物を備えた施設で、市立の小学校、中学校、高等学校等が指定されています。","","/sendaicity-html/pict/80101_001.jpg","危機管理局防災計画課","大雨（洪水・土砂）、地震","140.899617008205","38.2625934246247","指定避難所"
"指定避難所（東華中学校）","仙台市宮城野区宮城野2-14-27","http://www.city.sendai.jp/anzensuishin/kurashi/anzen/saigaitaisaku/hinanjo/doko.html","避難のための広場と建物を備えた施設で、市立の小学校、中学校、高等学校等が指定されています。","","/sendaicity-html/pict/80101_001.jpg","危機管理局防災計画課","大雨（洪水・土砂）、地震
※大雨時は初動で開設されません。","140.899443579316","38.254331085174","指定避難所"
"指定避難所（東宮城野小学校）","仙台市宮城野区東宮城野5-1","http://www.city.sendai.jp/anzensuishin/kurashi/anzen/saigaitaisaku/hinanjo/doko.html","避難のための広場と建物を備えた施設で、市立の小学校、中学校、高等学校等が指定されています。","","/sendaicity-html/pict/80101_001.jpg","危機管理局防災計画課","大雨（洪水・土砂）、地震","140.919440779767","38.2591902903863","指定避難所"
"指定避難所（原町小学校）","仙台市宮城野区原町2-6-1","http://www.city.sendai.jp/anzensuishin/kurashi/anzen/saigaitaisaku/hinanjo/doko.html","避難のための広場と建物を備えた施設で、市立の小学校、中学校、高等学校等が指定されています。","","/sendaicity-html/pict/80101_001.jpg","危機管理局防災計画課","大雨（洪水・土砂）、地震","140.903564274474","38.266669128855","指定避難所"
"指定避難所（東仙台小学校）","仙台市宮城野区東仙台5-26-1","http://www.city.sendai.jp/anzensuishin/kurashi/anzen/saigaitaisaku/hinanjo/doko.html","避難のための広場と建物を備えた施設で、市立の小学校、中学校、高等学校等が指定されています。","","/sendaicity-html/pict/80101_001.jpg","危機管理局防災計画課","大雨（洪水・土砂）、地震","140.912578912301","38.2772321996691","指定避難所"
"指定避難所（幸町中学校）","仙台市宮城野区幸町1-15-1","http://www.city.sendai.jp/anzensuishin/kurashi/anzen/saigaitaisaku/hinanjo/doko.html","避難のための広場と建物を備えた施設で、市立の小学校、中学校、高等学校等が指定されています。","","/sendaicity-html/pict/80101_001.jpg","危機管理局防災計画課","大雨（洪水・土砂）、地震","140.89375621866","38.2771843044015","指定避難所"
"指定避難所（西山小学校）","仙台市宮城野区燕沢2-23-1","http://www.city.sendai.jp/anzensuishin/kurashi/anzen/saigaitaisaku/hinanjo/doko.html","避難のための広場と建物を備えた施設で、市立の小学校、中学校、高等学校等が指定されています。","","/sendaicity-html/pict/80101_001.jpg","危機管理局防災計画課","大雨（洪水・土砂）、地震","140.914847601745","38.2834509021873","指定避難所"
"指定避難所（西山中学校）","仙台市宮城野区燕沢2-21-1","http://www.city.sendai.jp/anzensuishin/kurashi/anzen/saigaitaisaku/hinanjo/doko.html","避難のための広場と建物を備えた施設で、市立の小学校、中学校、高等学校等が指定されています。","","/sendaicity-html/pict/80101_001.jpg","危機管理局防災計画課","大雨（洪水・土砂）、地震
※大雨時は初動で開設されません。","140.916761410635","38.2828288294175","指定避難所"
"指定避難所（鶴谷小学校）","仙台市宮城野区鶴ケ谷3-17","http://www.city.sendai.jp/anzensuishin/kurashi/anzen/saigaitaisaku/hinanjo/doko.html","避難のための広場と建物を備えた施設で、市立の小学校、中学校、高等学校等が指定されています。","","/sendaicity-html/pict/80101_001.jpg","危機管理局防災計画課","大雨（洪水・土砂）、地震","140.909951671687","38.2907005675925","指定避難所"
"指定避難所（鶴谷東小学校）","仙台市宮城野区鶴ケ谷6-2","http://www.city.sendai.jp/anzensuishin/kurashi/anzen/saigaitaisaku/hinanjo/doko.html","避難のための広場と建物を備えた施設で、市立の小学校、中学校、高等学校等が指定されています。","","/sendaicity-html/pict/80101_001.jpg","危機管理局防災計画課","大雨（洪水・土砂）、地震","140.919851838206","38.2906993456661","指定避難所"
"指定避難所（中野中学校）","仙台市宮城野区中野字高橋前65","http://www.city.sendai.jp/anzensuishin/kurashi/anzen/saigaitaisaku/hinanjo/doko.html","避難のための広場と建物を備えた施設で、市立の小学校、中学校、高等学校等が指定されています。","","/sendaicity-html/pict/80101_001.jpg","危機管理局防災計画課","大雨（洪水・土砂）（2階以上）、地震、津波（2階以上）","140.975932727758","38.2826567085226","指定避難所"
"指定避難所（田子中学校）","仙台市宮城野区田子2-12-1","http://www.city.sendai.jp/anzensuishin/kurashi/anzen/saigaitaisaku/hinanjo/doko.html","避難のための広場と建物を備えた施設で、市立の小学校、中学校、高等学校等が指定されています。","","/sendaicity-html/pict/80101_001.jpg","危機管理局防災計画課","大雨（洪水・土砂）（2階以上）、地震、津波","140.957895685023","38.278889047633","指定避難所"
"指定避難所（高砂中学校）","仙台市宮城野区白鳥1-32-1","http://www.city.sendai.jp/anzensuishin/kurashi/anzen/saigaitaisaku/hinanjo/doko.html","避難のための広場と建物を備えた施設で、市立の小学校、中学校、高等学校等が指定されています。","","/sendaicity-html/pict/80101_001.jpg","危機管理局防災計画課","大雨（洪水・土砂）（2階以上）、地震、津波（3階以上）","140.976908275155","38.2645666098551","指定避難所"
"指定避難所（荒町小学校）","仙台市若林区荒町86","http://www.city.sendai.jp/anzensuishin/kurashi/anzen/saigaitaisaku/hinanjo/doko.html","避難のための広場と建物を備えた施設で、市立の小学校、中学校、高等学校等が指定されています。","","/sendaicity-html/pict/80101_001.jpg","危機管理局防災計画課","大雨（洪水・土砂）、地震","140.881001922","38.2488858706575","指定避難所"
"指定避難所（連坊小路小学校）","仙台市若林区連坊1-7-27","http://www.city.sendai.jp/anzensuishin/kurashi/anzen/saigaitaisaku/hinanjo/doko.html","避難のための広場と建物を備えた施設で、市立の小学校、中学校、高等学校等が指定されています。","","/sendaicity-html/pict/80101_001.jpg","危機管理局防災計画課","大雨（洪水・土砂）、地震","140.888933878813","38.2529416192334","指定避難所"
"指定避難所（大和小学校）","仙台市若林区大和町3-16-1","http://www.city.sendai.jp/anzensuishin/kurashi/anzen/saigaitaisaku/hinanjo/doko.html","避難のための広場と建物を備えた施設で、市立の小学校、中学校、高等学校等が指定されています。","","/sendaicity-html/pict/80101_001.jpg","危機管理局防災計画課","大雨（洪水・土砂）（2階以上）、地震","140.917558477763","38.2465493074356","指定避難所"
"指定避難所（遠見塚小学校）","仙台市若林区遠見塚1-22-1","http://www.city.sendai.jp/anzensuishin/kurashi/anzen/saigaitaisaku/hinanjo/doko.html","避難のための広場と建物を備えた施設で、市立の小学校、中学校、高等学校等が指定されています。","","/sendaicity-html/pict/80101_001.jpg","危機管理局防災計画課","大雨（洪水・土砂）（2階以上）、地震","140.91251799526","38.2381831068313","指定避難所"
"指定避難所（古城小学校）","仙台市若林区古城2-1-1","http://www.city.sendai.jp/anzensuishin/kurashi/anzen/saigaitaisaku/hinanjo/doko.html","避難のための広場と建物を備えた施設で、市立の小学校、中学校、高等学校等が指定されています。","","/sendaicity-html/pict/80101_001.jpg","危機管理局防災計画課","大雨（洪水・土砂）（2階以上）、地震","140.897114259959","38.2365602495517","指定避難所"
"指定避難所（七郷小学校）","仙台市若林区荒井3-17-1","http://www.city.sendai.jp/anzensuishin/kurashi/anzen/saigaitaisaku/hinanjo/doko.html","避難のための広場と建物を備えた施設で、市立の小学校、中学校、高等学校等が指定されています。","","/sendaicity-html/pict/80101_001.jpg","危機管理局防災計画課","大雨（洪水・土砂）（2階以上）、地震、津波","140.942589325274","38.2406027885302","指定避難所"
"指定避難所（沖野小学校）","仙台市若林区沖野3-20-1","http://www.city.sendai.jp/anzensuishin/kurashi/anzen/saigaitaisaku/hinanjo/doko.html","避難のための広場と建物を備えた施設で、市立の小学校、中学校、高等学校等が指定されています。","","/sendaicity-html/pict/80101_001.jpg","危機管理局防災計画課","大雨（洪水・土砂）（2階以上）、地震、津波","140.914058720871","38.2268136634534","指定避難所"
"指定避難所（六郷小学校）","仙台市若林区六郷11-11","http://www.city.sendai.jp/anzensuishin/kurashi/anzen/saigaitaisaku/hinanjo/doko.html","避難のための広場と建物を備えた施設で、市立の小学校、中学校、高等学校等が指定されています。","","/sendaicity-html/pict/80101_001.jpg","危機管理局防災計画課","大雨（洪水・土砂）（2階以上）、地震、津波（2階以上）","140.933186189759","38.215152870476","指定避難所"
"指定避難所（蒲町小学校）","仙台市若林区蒲町41-1","http://www.city.sendai.jp/anzensuishin/kurashi/anzen/saigaitaisaku/hinanjo/doko.html","避難のための広場と建物を備えた施設で、市立の小学校、中学校、高等学校等が指定されています。","","/sendaicity-html/pict/80101_001.jpg","危機管理局防災計画課","大雨（洪水・土砂）（2階以上）、地震、津波","140.929446205864","38.242910894708","指定避難所"
"指定避難所（南小泉小学校）","仙台市若林区一本杉町17-10","http://www.city.sendai.jp/anzensuishin/kurashi/anzen/saigaitaisaku/hinanjo/doko.html","避難のための広場と建物を備えた施設で、市立の小学校、中学校、高等学校等が指定されています。","","/sendaicity-html/pict/80101_001.jpg","危機管理局防災計画課","大雨（洪水・土砂）（2階以上）、地震","140.905165716457","38.2447099862838","指定避難所"
"指定避難所（南小泉中学校）","仙台市若林区一本杉町2-1","http://www.city.sendai.jp/anzensuishin/kurashi/anzen/saigaitaisaku/hinanjo/doko.html","避難のための広場と建物を備えた施設で、市立の小学校、中学校、高等学校等が指定されています。","","/sendaicity-html/pict/80101_001.jpg","危機管理局防災計画課","大雨（洪水・土砂）（2階以上）、地震","140.904893507503","38.2436961668282","指定避難所"
"指定避難所（六郷中学校）","仙台市若林区六郷13-1","http://www.city.sendai.jp/anzensuishin/kurashi/anzen/saigaitaisaku/hinanjo/doko.html","避難のための広場と建物を備えた施設で、市立の小学校、中学校、高等学校等が指定されています。","","/sendaicity-html/pict/80101_001.jpg","危機管理局防災計画課","大雨（洪水・土砂）（2階以上）、地震、津波（2階以上）","140.934186133319","38.2137919681237","指定避難所"
"指定避難所（七郷中学校）","仙台市若林区荒井8-1-1","http://www.city.sendai.jp/anzensuishin/kurashi/anzen/saigaitaisaku/hinanjo/doko.html","避難のための広場と建物を備えた施設で、市立の小学校、中学校、高等学校等が指定されています。","","/sendaicity-html/pict/80101_001.jpg","危機管理局防災計画課","大雨（洪水・土砂）（2階以上）、地震、津波","140.946092035488","38.2372531191978","指定避難所"
"指定避難所（沖野中学校）","仙台市若林区沖野2-29-50","http://www.city.sendai.jp/anzensuishin/kurashi/anzen/saigaitaisaku/hinanjo/doko.html","避難のための広場と建物を備えた施設で、市立の小学校、中学校、高等学校等が指定されています。","","/sendaicity-html/pict/80101_001.jpg","危機管理局防災計画課","大雨（洪水・土砂）（2階以上）、地震、津波","140.915020909186","38.2289868084531","指定避難所"
"指定避難所（沖野東小学校）","仙台市若林区沖野字高野南89","http://www.city.sendai.jp/anzensuishin/kurashi/anzen/saigaitaisaku/hinanjo/doko.html","避難のための広場と建物を備えた施設で、市立の小学校、中学校、高等学校等が指定されています。","","/sendaicity-html/pict/80101_001.jpg","危機管理局防災計画課","大雨（洪水・土砂）（2階以上）、地震、津波","140.922275957257","38.2232321097978","指定避難所"
"指定避難所（南材木町小学校）","仙台市若林区南材木町84","http://www.city.sendai.jp/anzensuishin/kurashi/anzen/saigaitaisaku/hinanjo/doko.html","避難のための広場と建物を備えた施設で、市立の小学校、中学校、高等学校等が指定されています。","","/sendaicity-html/pict/80101_001.jpg","危機管理局防災計画課","大雨（洪水・土砂）（2階以上）、地震","140.889440132851","38.2412648500147","指定避難所"
"指定避難所（八軒中学校）","仙台市若林区南小泉字八軒小路9-1","http://www.city.sendai.jp/anzensuishin/kurashi/anzen/saigaitaisaku/hinanjo/doko.html","避難のための広場と建物を備えた施設で、市立の小学校、中学校、高等学校等が指定されています。","","/sendaicity-html/pict/80101_001.jpg","危機管理局防災計画課","大雨（洪水・土砂）（2階以上）、地震","140.892453634488","38.2411567360811","指定避難所"
"指定避難所（若林小学校）","仙台市若林区若林4-3-1","http://www.city.sendai.jp/anzensuishin/kurashi/anzen/saigaitaisaku/hinanjo/doko.html","避難のための広場と建物を備えた施設で、市立の小学校、中学校、高等学校等が指定されています。","","/sendaicity-html/pict/80101_001.jpg","危機管理局防災計画課","大雨（洪水・土砂）（2階以上）、地震","140.899606069916","38.2295249789725","指定避難所"
"指定避難所（蒲町中学校）","仙台市若林区蒲町9-1","http://www.city.sendai.jp/anzensuishin/kurashi/anzen/saigaitaisaku/hinanjo/doko.html","避難のための広場と建物を備えた施設で、市立の小学校、中学校、高等学校等が指定されています。","","/sendaicity-html/pict/80101_001.jpg","危機管理局防災計画課","大雨（洪水・土砂）（2階以上）、地震、津波","140.928754243917","38.2474577549611","指定避難所"
"指定避難所（向山小学校）","仙台市太白区向山3-19-1","http://www.city.sendai.jp/anzensuishin/kurashi/anzen/saigaitaisaku/hinanjo/doko.html","避難のための広場と建物を備えた施設で、市立の小学校、中学校、高等学校等が指定されています。","","/sendaicity-html/pict/80101_001.jpg","危機管理局防災計画課","大雨（洪水・土砂）、地震","140.866770726162","38.2434078851055","指定避難所"
"指定避難所（愛宕中学校）","仙台市太白区萩ケ丘9-1","http://www.city.sendai.jp/anzensuishin/kurashi/anzen/saigaitaisaku/hinanjo/doko.html","避難のための広場と建物を備えた施設で、市立の小学校、中学校、高等学校等が指定されています。","","/sendaicity-html/pict/80101_001.jpg","危機管理局防災計画課","大雨（洪水・土砂）、地震","140.87064547771","38.2414663656626","指定避難所"
"指定避難所（大野田小学校）","仙台市太白区大野田5-27-2","http://www.city.sendai.jp/anzensuishin/kurashi/anzen/saigaitaisaku/hinanjo/doko.html","避難のための広場と建物を備えた施設で、市立の小学校、中学校、高等学校等が指定されています。","","/sendaicity-html/pict/80101_001.jpg","危機管理局防災計画課","大雨（洪水・土砂）、地震","140.874445048068","38.2167339359394","指定避難所"
"指定避難所（郡山中学校）","仙台市太白区郡山5-10-1","http://www.city.sendai.jp/anzensuishin/kurashi/anzen/saigaitaisaku/hinanjo/doko.html","避難のための広場と建物を備えた施設で、市立の小学校、中学校、高等学校等が指定されています。","","/sendaicity-html/pict/80101_001.jpg","危機管理局防災計画課","大雨（洪水・土砂）（2階以上）、地震","140.892371015251","38.2199534952596","指定避難所"
"指定避難所（八本松小学校）","仙台市太白区八本松1-16-1","http://www.city.sendai.jp/anzensuishin/kurashi/anzen/saigaitaisaku/hinanjo/doko.html","避難のための広場と建物を備えた施設で、市立の小学校、中学校、高等学校等が指定されています。","","/sendaicity-html/pict/80101_001.jpg","危機管理局防災計画課","大雨（洪水・土砂）（2階以上）、地震","140.897924122327","38.2254533856519","指定避難所"
"指定避難所（長町中学校）","仙台市太白区鹿野1-8-1","http://www.city.sendai.jp/anzensuishin/kurashi/anzen/saigaitaisaku/hinanjo/doko.html","避難のための広場と建物を備えた施設で、市立の小学校、中学校、高等学校等が指定されています。","","/sendaicity-html/pict/80101_001.jpg","危機管理局防災計画課","大雨（洪水・土砂）、地震","140.873878534477","38.2304901040046","指定避難所"
"指定避難所（西多賀小学校）","仙台市太白区西多賀2-3-1","http://www.city.sendai.jp/anzensuishin/kurashi/anzen/saigaitaisaku/hinanjo/doko.html","避難のための広場と建物を備えた施設で、市立の小学校、中学校、高等学校等が指定されています。","","/sendaicity-html/pict/80101_001.jpg","危機管理局防災計画課","大雨（洪水・土砂）、地震","140.859268599089","38.21983039431","指定避難所"
"指定避難所（八木山小学校）","仙台市太白区八木山本町1-40-1","http://www.city.sendai.jp/anzensuishin/kurashi/anzen/saigaitaisaku/hinanjo/doko.html","避難のための広場と建物を備えた施設で、市立の小学校、中学校、高等学校等が指定されています。","","/sendaicity-html/pict/80101_001.jpg","危機管理局防災計画課","大雨（洪水・土砂）、地震","140.849058815612","38.2390054977254","指定避難所"
"指定避難所（八木山南小学校）","仙台市太白区八木山南5-3-2","http://www.city.sendai.jp/anzensuishin/kurashi/anzen/saigaitaisaku/hinanjo/doko.html","避難のための広場と建物を備えた施設で、市立の小学校、中学校、高等学校等が指定されています。","","/sendaicity-html/pict/80101_001.jpg","危機管理局防災計画課","地震","140.831919616737","38.2338641209885","指定避難所"
"指定避難所（芦口小学校）","仙台市太白区芦の口1-1","http://www.city.sendai.jp/anzensuishin/kurashi/anzen/saigaitaisaku/hinanjo/doko.html","避難のための広場と建物を備えた施設で、市立の小学校、中学校、高等学校等が指定されています。","","/sendaicity-html/pict/80101_001.jpg","危機管理局防災計画課","大雨（洪水・土砂）、地震","140.856824219373","38.23044845794","指定避難所"
"指定避難所（金剛沢小学校）","仙台市太白区金剛沢1-1-1","http://www.city.sendai.jp/anzensuishin/kurashi/anzen/saigaitaisaku/hinanjo/doko.html","避難のための広場と建物を備えた施設で、市立の小学校、中学校、高等学校等が指定されています。","","/sendaicity-html/pict/80101_001.jpg","危機管理局防災計画課","大雨（洪水・土砂）、地震
※大雨時は初動で開設されません。","140.848914275667","38.2291067696486","指定避難所"
"指定避難所（山田中学校）","仙台市太白区山田北前町36-1","http://www.city.sendai.jp/anzensuishin/kurashi/anzen/saigaitaisaku/hinanjo/doko.html","避難のための広場と建物を備えた施設で、市立の小学校、中学校、高等学校等が指定されています。","","/sendaicity-html/pict/80101_001.jpg","危機管理局防災計画課","大雨（洪水・土砂）、地震","140.826642767316","38.2207292122517","指定避難所"
"指定避難所（太白小学校）","仙台市太白区太白1-5-1","http://www.city.sendai.jp/anzensuishin/kurashi/anzen/saigaitaisaku/hinanjo/doko.html","避難のための広場と建物を備えた施設で、市立の小学校、中学校、高等学校等が指定されています。","","/sendaicity-html/pict/80101_001.jpg","危機管理局防災計画課","大雨（洪水・土砂）、地震","140.817471691585","38.2312806150618","指定避難所"
"指定避難所（生出中学校）","仙台市太白区茂庭字中ノ瀬西2-2","http://www.city.sendai.jp/anzensuishin/kurashi/anzen/saigaitaisaku/hinanjo/doko.html","避難のための広場と建物を備えた施設で、市立の小学校、中学校、高等学校等が指定されています。","","/sendaicity-html/pict/80101_001.jpg","危機管理局防災計画課","大雨（洪水・土砂）、地震","140.789944893403","38.2195279780989","指定避難所"
"指定避難所（中田小学校）","仙台市太白区中田4-1-1","http://www.city.sendai.jp/anzensuishin/kurashi/anzen/saigaitaisaku/hinanjo/doko.html","避難のための広場と建物を備えた施設で、市立の小学校、中学校、高等学校等が指定されています。","","/sendaicity-html/pict/80101_001.jpg","危機管理局防災計画課","大雨（洪水・土砂）（2階以上）、地震","140.887633568163","38.1999943567121","指定避難所"
"指定避難所（四郎丸小学校）","仙台市太白区四郎丸字吹上6-3","http://www.city.sendai.jp/anzensuishin/kurashi/anzen/saigaitaisaku/hinanjo/doko.html","避難のための広場と建物を備えた施設で、市立の小学校、中学校、高等学校等が指定されています。","","/sendaicity-html/pict/80101_001.jpg","危機管理局防災計画課","大雨（洪水・土砂）（2階以上）、地震、津波","140.910642547096","38.1939404255867","指定避難所"
"指定避難所（袋原小学校）","仙台市太白区中田町字法地南4-2","http://www.city.sendai.jp/anzensuishin/kurashi/anzen/saigaitaisaku/hinanjo/doko.html","避難のための広場と建物を備えた施設で、市立の小学校、中学校、高等学校等が指定されています。","","/sendaicity-html/pict/80101_001.jpg","危機管理局防災計画課","大雨（洪水・土砂）（2階以上）、地震、津波","140.902376646697","38.196050928371","指定避難所"
"指定避難所（長町小学校）","仙台市太白区長町4-6-1","http://www.city.sendai.jp/anzensuishin/kurashi/anzen/saigaitaisaku/hinanjo/doko.html","避難のための広場と建物を備えた施設で、市立の小学校、中学校、高等学校等が指定されています。","","/sendaicity-html/pict/80101_001.jpg","危機管理局防災計画課","大雨（洪水・土砂）（2階以上）、地震","140.880658316816","38.2316653160926","指定避難所"
"指定避難所（鹿野小学校）","仙台市太白区鹿野2-9-1","http://www.city.sendai.jp/anzensuishin/kurashi/anzen/saigaitaisaku/hinanjo/doko.html","避難のための広場と建物を備えた施設で、市立の小学校、中学校、高等学校等が指定されています。","","/sendaicity-html/pict/80101_001.jpg","危機管理局防災計画課","大雨（洪水・土砂）、地震","140.870439904473","38.2288875037393","指定避難所"
"指定避難所（上野山小学校）","仙台市太白区上野山1-20-1","http://www.city.sendai.jp/anzensuishin/kurashi/anzen/saigaitaisaku/hinanjo/doko.html","避難のための広場と建物を備えた施設で、市立の小学校、中学校、高等学校等が指定されています。","","/sendaicity-html/pict/80101_001.jpg","危機管理局防災計画課","大雨（洪水・土砂）、地震","140.829386720598","38.2268314580702","指定避難所"
"指定避難所（西多賀中学校）","仙台市太白区西多賀3-10-1","http://www.city.sendai.jp/anzensuishin/kurashi/anzen/saigaitaisaku/hinanjo/doko.html","避難のための広場と建物を備えた施設で、市立の小学校、中学校、高等学校等が指定されています。","","/sendaicity-html/pict/80101_001.jpg","危機管理局防災計画課","大雨（洪水・土砂）、地震","140.85202504628","38.2261627692078","指定避難所"
"指定避難所（袋原中学校）","仙台市太白区袋原4-27-1","http://www.city.sendai.jp/anzensuishin/kurashi/anzen/saigaitaisaku/hinanjo/doko.html","避難のための広場と建物を備えた施設で、市立の小学校、中学校、高等学校等が指定されています。","","/sendaicity-html/pict/80101_001.jpg","危機管理局防災計画課","大雨（洪水・土砂）（2階以上）、地震、津波","140.912864138842","38.1988149967489","指定避難所"
"指定避難所（郡山小学校）","仙台市太白区郡山字行新田1-1","http://www.city.sendai.jp/anzensuishin/kurashi/anzen/saigaitaisaku/hinanjo/doko.html","避難のための広場と建物を備えた施設で、市立の小学校、中学校、高等学校等が指定されています。","","/sendaicity-html/pict/80101_001.jpg","危機管理局防災計画課","大雨（洪水・土砂）（2階以上）、地震、津波","140.899506562323","38.2168346937794","指定避難所"
"指定避難所（茂庭台小学校）","仙台市太白区茂庭台4-17-1","http://www.city.sendai.jp/anzensuishin/kurashi/anzen/saigaitaisaku/hinanjo/doko.html","避難のための広場と建物を備えた施設で、市立の小学校、中学校、高等学校等が指定されています。","","/sendaicity-html/pict/80101_001.jpg","危機管理局防災計画課","大雨（洪水・土砂）、地震","140.783850176521","38.2372734401888","指定避難所"
"指定避難所（馬場小学校）","仙台市太白区秋保町馬場字町北25","http://www.city.sendai.jp/anzensuishin/kurashi/anzen/saigaitaisaku/hinanjo/doko.html","避難のための広場と建物を備えた施設で、市立の小学校、中学校、高等学校等が指定されています。","","/sendaicity-html/pict/80101_001.jpg","危機管理局防災計画課","大雨（洪水・土砂）、地震","140.643973219666","38.2702169254683","指定避難所"
"指定避難所（秋保小学校）","仙台市太白区秋保町長袋字町15","http://www.city.sendai.jp/anzensuishin/kurashi/anzen/saigaitaisaku/hinanjo/doko.html","避難のための広場と建物を備えた施設で、市立の小学校、中学校、高等学校等が指定されています。","","/sendaicity-html/pict/80101_001.jpg","危機管理局防災計画課","大雨（洪水・土砂）、地震","140.680117942268","38.2559308621707","指定避難所"
"指定避難所（湯元小学校）","仙台市太白区秋保町湯向29-3","http://www.city.sendai.jp/anzensuishin/kurashi/anzen/saigaitaisaku/hinanjo/doko.html","避難のための広場と建物を備えた施設で、市立の小学校、中学校、高等学校等が指定されています。","","/sendaicity-html/pict/80101_001.jpg","危機管理局防災計画課","地震","140.719457451561","38.2305766631076","指定避難所"
"指定避難所（秋保中学校）","仙台市太白区秋保町長袋字大原45-5","http://www.city.sendai.jp/anzensuishin/kurashi/anzen/saigaitaisaku/hinanjo/doko.html","避難のための広場と建物を備えた施設で、市立の小学校、中学校、高等学校等が指定されています。","","/sendaicity-html/pict/80101_001.jpg","危機管理局防災計画課","大雨（洪水・土砂・ため池）（２階以上）、地震","140.673087700907","38.2594580061046","指定避難所"
"指定避難所（東四郎丸小学校）","仙台市太白区四郎丸字昭和北1","http://www.city.sendai.jp/anzensuishin/kurashi/anzen/saigaitaisaku/hinanjo/doko.html","避難のための広場と建物を備えた施設で、市立の小学校、中学校、高等学校等が指定されています。","","/sendaicity-html/pict/80101_001.jpg","危機管理局防災計画課","大雨（洪水・土砂）（2階以上）、地震、津波（2階以上）","140.923743848113","38.1933411279068","指定避難所"
"指定避難所（西中田小学校）","仙台市太白区西中田7-7-1","http://www.city.sendai.jp/anzensuishin/kurashi/anzen/saigaitaisaku/hinanjo/doko.html","避難のための広場と建物を備えた施設で、市立の小学校、中学校、高等学校等が指定されています。","","/sendaicity-html/pict/80101_001.jpg","危機管理局防災計画課","大雨（洪水・土砂）（2階以上）、地震","140.876107284959","38.1934028043876","指定避難所"
"指定避難所（長町南小学校）","仙台市太白区長町7-23-1","http://www.city.sendai.jp/anzensuishin/kurashi/anzen/saigaitaisaku/hinanjo/doko.html","避難のための広場と建物を備えた施設で、市立の小学校、中学校、高等学校等が指定されています。","","/sendaicity-html/pict/80101_001.jpg","危機管理局防災計画課","大雨（洪水・土砂）、地震","140.874417297076","38.2257492492761","指定避難所"
"指定避難所（ろりぽっぷ小学校（旧坪沼小学校））","仙台市太白区坪沼字長田中9-1","http://www.city.sendai.jp/anzensuishin/kurashi/anzen/saigaitaisaku/hinanjo/doko.html","避難のための広場と建物を備えた施設で、市立の小学校、中学校、高等学校等が指定されています。","","/sendaicity-html/pict/80101_001.jpg","危機管理局防災計画課","地震","140.771506457727","38.1918520291891","指定避難所"
"指定避難所（富沢中学校）","仙台市太白区富沢2-4-1","http://www.city.sendai.jp/anzensuishin/kurashi/anzen/saigaitaisaku/hinanjo/doko.html","避難のための広場と建物を備えた施設で、市立の小学校、中学校、高等学校等が指定されています。","","/sendaicity-html/pict/80101_001.jpg","危機管理局防災計画課","大雨（洪水・土砂）（2階以上）、地震","140.863762841169","38.218291786971","指定避難所"
"指定避難所（人来田小学校）","仙台市太白区人来田1-1-1","http://www.city.sendai.jp/anzensuishin/kurashi/anzen/saigaitaisaku/hinanjo/doko.html","避難のための広場と建物を備えた施設で、市立の小学校、中学校、高等学校等が指定されています。","","/sendaicity-html/pict/80101_001.jpg","危機管理局防災計画課","大雨（洪水・土砂）、地震","140.809278395936","38.2246726151202","指定避難所"
"指定避難所（東長町小学校）","仙台市太白区郡山6-5-1","http://www.city.sendai.jp/anzensuishin/kurashi/anzen/saigaitaisaku/hinanjo/doko.html","避難のための広場と建物を備えた施設で、市立の小学校、中学校、高等学校等が指定されています。","","/sendaicity-html/pict/80101_001.jpg","危機管理局防災計画課","大雨（洪水・土砂）（3階以上）、地震","140.889182586961","38.2189451586377","指定避難所"
"指定避難所（中田中学校）","仙台市太白区中田5-15-1","http://www.city.sendai.jp/anzensuishin/kurashi/anzen/saigaitaisaku/hinanjo/doko.html","避難のための広場と建物を備えた施設で、市立の小学校、中学校、高等学校等が指定されています。","","/sendaicity-html/pict/80101_001.jpg","危機管理局防災計画課","大雨（洪水・土砂）（2階以上）、地震","140.889503010771","38.1960281425753","指定避難所"
"指定避難所（八木山中学校）","仙台市太白区八木山東2-27-1","http://www.city.sendai.jp/anzensuishin/kurashi/anzen/saigaitaisaku/hinanjo/doko.html","避難のための広場と建物を備えた施設で、市立の小学校、中学校、高等学校等が指定されています。","","/sendaicity-html/pict/80101_001.jpg","危機管理局防災計画課","大雨（洪水・土砂）、地震","140.846447943514","38.2374917733194","指定避難所"
"指定避難所（人来田中学校）","仙台市太白区人来田1-35-1","http://www.city.sendai.jp/anzensuishin/kurashi/anzen/saigaitaisaku/hinanjo/doko.html","避難のための広場と建物を備えた施設で、市立の小学校、中学校、高等学校等が指定されています。","","/sendaicity-html/pict/80101_001.jpg","危機管理局防災計画課","地震","140.805751106632","38.226975018097","指定避難所"
"指定避難所（生出小学校）","仙台市太白区茂庭字中ノ瀬西5-2","http://www.city.sendai.jp/anzensuishin/kurashi/anzen/saigaitaisaku/hinanjo/doko.html","避難のための広場と建物を備えた施設で、市立の小学校、中学校、高等学校等が指定されています。","","/sendaicity-html/pict/80101_001.jpg","危機管理局防災計画課","大雨（洪水・土砂）、地震
※大雨時は初動で開設されません。","140.788735528372","38.2197206971931","指定避難所"
"指定避難所（茂庭台中学校）","仙台市太白区茂庭台5-3-1","http://www.city.sendai.jp/anzensuishin/kurashi/anzen/saigaitaisaku/hinanjo/doko.html","避難のための広場と建物を備えた施設で、市立の小学校、中学校、高等学校等が指定されています。","","/sendaicity-html/pict/80101_001.jpg","危機管理局防災計画課","大雨（洪水・土砂）、地震","140.778253789017","38.2343012337864","指定避難所"
"指定避難所（赤石文化財収蔵庫（旧生出小学校赤石分校））","仙台市太白区茂庭字合ノ沢南31","http://www.city.sendai.jp/anzensuishin/kurashi/anzen/saigaitaisaku/hinanjo/doko.html","避難のための広場と建物を備えた施設で、市立の小学校、中学校、高等学校等が指定されています。","","/sendaicity-html/pict/80101_001.jpg","危機管理局防災計画課","大雨（洪水・土砂）、地震","140.755362955756","38.2165519039775","指定避難所"
"指定避難所（柳生中学校）","仙台市太白区柳生3-7-3","http://www.city.sendai.jp/anzensuishin/kurashi/anzen/saigaitaisaku/hinanjo/doko.html","避難のための広場と建物を備えた施設で、市立の小学校、中学校、高等学校等が指定されています。","","/sendaicity-html/pict/80101_001.jpg","危機管理局防災計画課","大雨（洪水・土砂）（2階以上）、地震","140.871891491677","38.1885001624282","指定避難所"
"指定避難所（柳生小学校）","仙台市太白区柳生字台畑100","http://www.city.sendai.jp/anzensuishin/kurashi/anzen/saigaitaisaku/hinanjo/doko.html","避難のための広場と建物を備えた施設で、市立の小学校、中学校、高等学校等が指定されています。","","/sendaicity-html/pict/80101_001.jpg","危機管理局防災計画課","大雨（洪水・土砂）（2階以上）、地震","140.871818566696","38.1984467174288","指定避難所"
"指定避難所（根白石小学校）","仙台市泉区根白石字杉下前15","http://www.city.sendai.jp/anzensuishin/kurashi/anzen/saigaitaisaku/hinanjo/doko.html","避難のための広場と建物を備えた施設で、市立の小学校、中学校、高等学校等が指定されています。","","/sendaicity-html/pict/80101_001.jpg","危機管理局防災計画課","大雨（洪水・土砂）、地震","140.796649948789","38.3413372101122","指定避難所"
"指定避難所（高森小学校）","仙台市泉区高森3-1","http://www.city.sendai.jp/anzensuishin/kurashi/anzen/saigaitaisaku/hinanjo/doko.html","避難のための広場と建物を備えた施設で、市立の小学校、中学校、高等学校等が指定されています。","","/sendaicity-html/pict/80101_001.jpg","危機管理局防災計画課","大雨（洪水・土砂）、地震","140.845290436121","38.3409635533894","指定避難所"
"指定避難所（将監小学校）","仙台市泉区将監3-10-1","http://www.city.sendai.jp/anzensuishin/kurashi/anzen/saigaitaisaku/hinanjo/doko.html","避難のための広場と建物を備えた施設で、市立の小学校、中学校、高等学校等が指定されています。","","/sendaicity-html/pict/80101_001.jpg","危機管理局防災計画課","大雨（洪水・土砂）、地震
※大雨時は初動で開設されません。","140.882563515501","38.3333963450511","指定避難所"
"指定避難所（将監中央小学校）","仙台市泉区将監10-3-1","http://www.city.sendai.jp/anzensuishin/kurashi/anzen/saigaitaisaku/hinanjo/doko.html","避難のための広場と建物を備えた施設で、市立の小学校、中学校、高等学校等が指定されています。","","/sendaicity-html/pict/80101_001.jpg","危機管理局防災計画課","大雨（洪水・土砂）、地震
※大雨時は初動で開設されません。","140.873753547338","38.3366011587316","指定避難所"
"指定避難所（向陽台小学校）","仙台市泉区向陽台5-6-12","http://www.city.sendai.jp/anzensuishin/kurashi/anzen/saigaitaisaku/hinanjo/doko.html","避難のための広場と建物を備えた施設で、市立の小学校、中学校、高等学校等が指定されています。","","/sendaicity-html/pict/80101_001.jpg","危機管理局防災計画課","大雨（洪水・土砂）、地震","140.89774465884","38.3348360921307","指定避難所"
"指定避難所（七北田小学校）","仙台市泉区七北田字東裏90","http://www.city.sendai.jp/anzensuishin/kurashi/anzen/saigaitaisaku/hinanjo/doko.html","避難のための広場と建物を備えた施設で、市立の小学校、中学校、高等学校等が指定されています。","","/sendaicity-html/pict/80101_001.jpg","危機管理局防災計画課","大雨（洪水・土砂）、地震","140.892520741105","38.3228037002291","指定避難所"
"指定避難所（七北田中学校）","仙台市泉区七北田字東裏100","http://www.city.sendai.jp/anzensuishin/kurashi/anzen/saigaitaisaku/hinanjo/doko.html","避難のための広場と建物を備えた施設で、市立の小学校、中学校、高等学校等が指定されています。","","/sendaicity-html/pict/80101_001.jpg","危機管理局防災計画課","大雨（洪水・土砂）、地震
※大雨時は初動で開設されません。","140.89292625531","38.3241896778688","指定避難所"
"指定避難所（松森小学校）","仙台市泉区鶴が丘2-2","http://www.city.sendai.jp/anzensuishin/kurashi/anzen/saigaitaisaku/hinanjo/doko.html","避難のための広場と建物を備えた施設で、市立の小学校、中学校、高等学校等が指定されています。","","/sendaicity-html/pict/80101_001.jpg","危機管理局防災計画課","大雨（洪水・土砂）、地震
※大雨時は初動で開設されません。","140.919259074492","38.319430505293","指定避難所"
"指定避難所（黒松小学校）","仙台市泉区黒松3-11-1","http://www.city.sendai.jp/anzensuishin/kurashi/anzen/saigaitaisaku/hinanjo/doko.html","避難のための広場と建物を備えた施設で、市立の小学校、中学校、高等学校等が指定されています。","","/sendaicity-html/pict/80101_001.jpg","危機管理局防災計画課","大雨（洪水・土砂）、地震","140.886405040277","38.3079276997654","指定避難所"
"指定避難所（八乙女中学校）","仙台市泉区旭丘堤2-1-1","http://www.city.sendai.jp/anzensuishin/kurashi/anzen/saigaitaisaku/hinanjo/doko.html","避難のための広場と建物を備えた施設で、市立の小学校、中学校、高等学校等が指定されています。","","/sendaicity-html/pict/80101_001.jpg","危機管理局防災計画課","地震","140.890860156261","38.302398130103","指定避難所"
"指定避難所（南光台小学校）","仙台市泉区南光台7-10-1","http://www.city.sendai.jp/anzensuishin/kurashi/anzen/saigaitaisaku/hinanjo/doko.html","避難のための広場と建物を備えた施設で、市立の小学校、中学校、高等学校等が指定されています。","","/sendaicity-html/pict/80101_001.jpg","危機管理局防災計画課","大雨（洪水・土砂）、地震
※大雨時は初動で開設されません。","140.900634128233","38.3005846381966","指定避難所"
"指定避難所（南光台東小学校）","仙台市泉区南光台東2-16-1","http://www.city.sendai.jp/anzensuishin/kurashi/anzen/saigaitaisaku/hinanjo/doko.html","避難のための広場と建物を備えた施設で、市立の小学校、中学校、高等学校等が指定されています。","","/sendaicity-html/pict/80101_001.jpg","危機管理局防災計画課","大雨（洪水・土砂）、地震","140.911822163929","38.2984711429667","指定避難所"
"指定避難所（南光台中学校）","仙台市泉区南光台7-24-1","http://www.city.sendai.jp/anzensuishin/kurashi/anzen/saigaitaisaku/hinanjo/doko.html","避難のための広場と建物を備えた施設で、市立の小学校、中学校、高等学校等が指定されています。","","/sendaicity-html/pict/80101_001.jpg","危機管理局防災計画課","大雨（洪水・土砂）、地震","140.901859000086","38.3026899720597","指定避難所"
"指定避難所（泉ケ丘小学校）","仙台市泉区明通4-12-1","http://www.city.sendai.jp/anzensuishin/kurashi/anzen/saigaitaisaku/hinanjo/doko.html","避難のための広場と建物を備えた施設で、市立の小学校、中学校、高等学校等が指定されています。","","/sendaicity-html/pict/80101_001.jpg","危機管理局防災計画課","大雨（洪水・土砂）、地震","140.861568532485","38.3561908681696","指定避難所"
"指定避難所（加茂小学校）","仙台市泉区加茂4-3","http://www.city.sendai.jp/anzensuishin/kurashi/anzen/saigaitaisaku/hinanjo/doko.html","避難のための広場と建物を備えた施設で、市立の小学校、中学校、高等学校等が指定されています。","","/sendaicity-html/pict/80101_001.jpg","危機管理局防災計画課","大雨（洪水・土砂）、地震","140.854697602418","38.3133761052294","指定避難所"
"指定避難所（八乙女小学校）","仙台市泉区松森字不動148","http://www.city.sendai.jp/anzensuishin/kurashi/anzen/saigaitaisaku/hinanjo/doko.html","避難のための広場と建物を備えた施設で、市立の小学校、中学校、高等学校等が指定されています。","","/sendaicity-html/pict/80101_001.jpg","危機管理局防災計画課","大雨（洪水・土砂）、地震","140.894965189708","38.3071781265206","指定避難所"
"指定避難所（鶴が丘小学校）","仙台市泉区鶴が丘1-350","http://www.city.sendai.jp/anzensuishin/kurashi/anzen/saigaitaisaku/hinanjo/doko.html","避難のための広場と建物を備えた施設で、市立の小学校、中学校、高等学校等が指定されています。","","/sendaicity-html/pict/80101_001.jpg","危機管理局防災計画課","大雨（洪水・土砂）、地震","140.929274644924","38.3151036856931","指定避難所"
"指定避難所（寺岡中学校）","仙台市泉区寺岡2-13-1","http://www.city.sendai.jp/anzensuishin/kurashi/anzen/saigaitaisaku/hinanjo/doko.html","避難のための広場と建物を備えた施設で、市立の小学校、中学校、高等学校等が指定されています。","","/sendaicity-html/pict/80101_001.jpg","危機管理局防災計画課","大雨（洪水・土砂）、地震","140.831111711781","38.340518640112","指定避難所"
"指定避難所（南中山小学校）","仙台市泉区南中山2-24-14","http://www.city.sendai.jp/anzensuishin/kurashi/anzen/saigaitaisaku/hinanjo/doko.html","避難のための広場と建物を備えた施設で、市立の小学校、中学校、高等学校等が指定されています。","","/sendaicity-html/pict/80101_001.jpg","危機管理局防災計画課","大雨（洪水・土砂）、地震","140.822792177979","38.3088357633028","指定避難所"
"指定避難所（虹の丘小学校）","仙台市泉区虹の丘1-10-1","http://www.city.sendai.jp/anzensuishin/kurashi/anzen/saigaitaisaku/hinanjo/doko.html","避難のための広場と建物を備えた施設で、市立の小学校、中学校、高等学校等が指定されています。","","/sendaicity-html/pict/80101_001.jpg","危機管理局防災計画課","大雨（洪水・土砂）、地震","140.873210078615","38.3074990220327","指定避難所"
"指定避難所（長命ケ丘中学校）","仙台市泉区長命ケ丘2-11-1","http://www.city.sendai.jp/anzensuishin/kurashi/anzen/saigaitaisaku/hinanjo/doko.html","避難のための広場と建物を備えた施設で、市立の小学校、中学校、高等学校等が指定されています。","","/sendaicity-html/pict/80101_001.jpg","危機管理局防災計画課","大雨（洪水・土砂）、地震
※大雨時は初動で開設されません。","140.841189634966","38.3125190912319","指定避難所"
"指定避難所（加茂中学校）","仙台市泉区加茂3-1","http://www.city.sendai.jp/anzensuishin/kurashi/anzen/saigaitaisaku/hinanjo/doko.html","避難のための広場と建物を備えた施設で、市立の小学校、中学校、高等学校等が指定されています。","","/sendaicity-html/pict/80101_001.jpg","危機管理局防災計画課","大雨（洪水・土砂）、地震
※大雨時は初動で開設されません。","140.85371006384","38.3155089444368","指定避難所"
"指定避難所（館小学校）","仙台市泉区館7-1-17","http://www.city.sendai.jp/anzensuishin/kurashi/anzen/saigaitaisaku/hinanjo/doko.html","避難のための広場と建物を備えた施設で、市立の小学校、中学校、高等学校等が指定されています。","","/sendaicity-html/pict/80101_001.jpg","危機管理局防災計画課","大雨（洪水・土砂）、地震","140.79925967704","38.31216091205","指定避難所"
"指定避難所（住吉台小学校）","仙台市泉区住吉台西4-1-1","http://www.city.sendai.jp/anzensuishin/kurashi/anzen/saigaitaisaku/hinanjo/doko.html","避難のための広場と建物を備えた施設で、市立の小学校、中学校、高等学校等が指定されています。","","/sendaicity-html/pict/80101_001.jpg","危機管理局防災計画課","大雨（洪水・土砂）、地震","140.782416337141","38.3294410809975","指定避難所"
"指定避難所（野村小学校）","仙台市泉区野村字東原前7","http://www.city.sendai.jp/anzensuishin/kurashi/anzen/saigaitaisaku/hinanjo/doko.html","避難のための広場と建物を備えた施設で、市立の小学校、中学校、高等学校等が指定されています。","","/sendaicity-html/pict/80101_001.jpg","危機管理局防災計画課","大雨（洪水・土砂）、地震","140.861097323908","38.3249127294252","指定避難所"
"指定避難所（旧実沢小学校）","仙台市泉区実沢字一本橋20","http://www.city.sendai.jp/anzensuishin/kurashi/anzen/saigaitaisaku/hinanjo/doko.html","避難のための広場と建物を備えた施設で、市立の小学校、中学校、高等学校等が指定されています。","","/sendaicity-html/pict/80101_001.jpg","危機管理局防災計画課","大雨（洪水・土砂）、地震","140.82111620185","38.3285391518637","指定避難所"
"指定避難所（福岡小学校）","仙台市泉区福岡字堰添10","http://www.city.sendai.jp/anzensuishin/kurashi/anzen/saigaitaisaku/hinanjo/doko.html","避難のための広場と建物を備えた施設で、市立の小学校、中学校、高等学校等が指定されています。","","/sendaicity-html/pict/80101_001.jpg","危機管理局防災計画課","大雨（洪水・土砂）、地震","140.781870714572","38.3543385710188","指定避難所"
"指定避難所（高森中学校）","仙台市泉区高森6-2","http://www.city.sendai.jp/anzensuishin/kurashi/anzen/saigaitaisaku/hinanjo/doko.html","避難のための広場と建物を備えた施設で、市立の小学校、中学校、高等学校等が指定されています。","","/sendaicity-html/pict/80101_001.jpg","危機管理局防災計画課","大雨（洪水・土砂）、地震
※大雨時は初動で開設されません。","140.849987029886","38.3398054787032","指定避難所"
"指定避難所（泉松陵小学校）","仙台市泉区松陵3-35","http://www.city.sendai.jp/anzensuishin/kurashi/anzen/saigaitaisaku/hinanjo/doko.html","避難のための広場と建物を備えた施設で、市立の小学校、中学校、高等学校等が指定されています。","","/sendaicity-html/pict/80101_001.jpg","危機管理局防災計画課","大雨（洪水・土砂）、地震","140.90743501796","38.3308898372986","指定避難所"
"指定避難所（北中山小学校）","仙台市泉区北中山2-27-5","http://www.city.sendai.jp/anzensuishin/kurashi/anzen/saigaitaisaku/hinanjo/doko.html","避難のための広場と建物を備えた施設で、市立の小学校、中学校、高等学校等が指定されています。","","/sendaicity-html/pict/80101_001.jpg","危機管理局防災計画課","大雨（洪水・土砂）、地震","140.814881570827","38.3158292524469","指定避難所"
"指定避難所（桂小学校）","仙台市泉区桂3-1-1","http://www.city.sendai.jp/anzensuishin/kurashi/anzen/saigaitaisaku/hinanjo/doko.html","避難のための広場と建物を備えた施設で、市立の小学校、中学校、高等学校等が指定されています。","","/sendaicity-html/pict/80101_001.jpg","危機管理局防災計画課","大雨（洪水・土砂）、地震
※大雨時は初動で開設されません。","140.864875967346","38.3394877335971","指定避難所"
"指定避難所（鶴が丘中学校）","仙台市泉区鶴が丘2-1-1","http://www.city.sendai.jp/anzensuishin/kurashi/anzen/saigaitaisaku/hinanjo/doko.html","避難のための広場と建物を備えた施設で、市立の小学校、中学校、高等学校等が指定されています。","","/sendaicity-html/pict/80101_001.jpg","危機管理局防災計画課","大雨（洪水・土砂）、地震
※大雨時は初動で開設されません。","140.920303380442","38.3186361978374","指定避難所"
"指定避難所（松陵中学校）","仙台市泉区松陵5-32","http://www.city.sendai.jp/anzensuishin/kurashi/anzen/saigaitaisaku/hinanjo/doko.html","避難のための広場と建物を備えた施設で、市立の小学校、中学校、高等学校等が指定されています。","","/sendaicity-html/pict/80101_001.jpg","危機管理局防災計画課","大雨（洪水・土砂）、地震
※大雨時は初動で開設されません。","140.916128481553","38.3290460384903","指定避難所"
"指定避難所（南光台東中学校）","仙台市泉区南光台東3-1-1","http://www.city.sendai.jp/anzensuishin/kurashi/anzen/saigaitaisaku/hinanjo/doko.html","避難のための広場と建物を備えた施設で、市立の小学校、中学校、高等学校等が指定されています。","","/sendaicity-html/pict/80101_001.jpg","危機管理局防災計画課","大雨（洪水・土砂）、地震
※大雨時は初動で開設されません。","140.914618777823","38.3021292608409","指定避難所"
"指定避難所（向陽台中学校）","仙台市泉区市名坂字天神沢38-4","http://www.city.sendai.jp/anzensuishin/kurashi/anzen/saigaitaisaku/hinanjo/doko.html","避難のための広場と建物を備えた施設で、市立の小学校、中学校、高等学校等が指定されています。","","/sendaicity-html/pict/80101_001.jpg","危機管理局防災計画課","大雨（洪水・土砂）、地震
※大雨時は初動で開設されません。","140.905724083548","38.3329950754932","指定避難所"
"指定避難所（将監東中学校）","仙台市泉区将監3-2-15","http://www.city.sendai.jp/anzensuishin/kurashi/anzen/saigaitaisaku/hinanjo/doko.html","避難のための広場と建物を備えた施設で、市立の小学校、中学校、高等学校等が指定されています。","","/sendaicity-html/pict/80101_001.jpg","危機管理局防災計画課","大雨（洪水・土砂）、地震
※大雨時は初動で開設されません。","140.887057404102","38.3327133572352","指定避難所"
"指定避難所（将監中学校）","仙台市泉区将監9-12-1","http://www.city.sendai.jp/anzensuishin/kurashi/anzen/saigaitaisaku/hinanjo/doko.html","避難のための広場と建物を備えた施設で、市立の小学校、中学校、高等学校等が指定されています。","","/sendaicity-html/pict/80101_001.jpg","危機管理局防災計画課","大雨（洪水・土砂）、地震
※大雨時は初動で開設されません。","140.871226115996","38.3328097063205","指定避難所"
"指定避難所（将監西小学校）","仙台市泉区将監10-29-1","http://www.city.sendai.jp/anzensuishin/kurashi/anzen/saigaitaisaku/hinanjo/doko.html","避難のための広場と建物を備えた施設で、市立の小学校、中学校、高等学校等が指定されています。","","/sendaicity-html/pict/80101_001.jpg","危機管理局防災計画課","大雨（洪水・土砂）、地震","140.869654144767","38.3344733621647","指定避難所"
"指定避難所（高森東小学校）","仙台市泉区高森7-1-1","http://www.city.sendai.jp/anzensuishin/kurashi/anzen/saigaitaisaku/hinanjo/doko.html","避難のための広場と建物を備えた施設で、市立の小学校、中学校、高等学校等が指定されています。","","/sendaicity-html/pict/80101_001.jpg","危機管理局防災計画課","大雨（洪水・土砂）、地震
※大雨時は初動で開設されません。","140.854926658143","38.3392112337522","指定避難所"
"指定避難所（長命ケ丘小学校）","仙台市泉区長命ケ丘5-14-1","http://www.city.sendai.jp/anzensuishin/kurashi/anzen/saigaitaisaku/hinanjo/doko.html","避難のための広場と建物を備えた施設で、市立の小学校、中学校、高等学校等が指定されています。","","/sendaicity-html/pict/80101_001.jpg","危機管理局防災計画課","大雨（洪水・土砂）、地震","140.833651469319","38.3146965869163","指定避難所"
"指定避難所（南中山中学校）","仙台市泉区南中山2-26-1","http://www.city.sendai.jp/anzensuishin/kurashi/anzen/saigaitaisaku/hinanjo/doko.html","避難のための広場と建物を備えた施設で、市立の小学校、中学校、高等学校等が指定されています。","","/sendaicity-html/pict/80101_001.jpg","危機管理局防災計画課","大雨（洪水・土砂）、地震
※大雨時は初動で開設されません。","140.827863820571","38.307863771256","指定避難所"
"指定避難所（寺岡小学校）","仙台市泉区寺岡2-14-1","http://www.city.sendai.jp/anzensuishin/kurashi/anzen/saigaitaisaku/hinanjo/doko.html","避難のための広場と建物を備えた施設で、市立の小学校、中学校、高等学校等が指定されています。","","/sendaicity-html/pict/80101_001.jpg","危機管理局防災計画課","大雨（洪水・土砂）、地震","140.828353782318","38.3403907706959","指定避難所"
"指定避難所（住吉台中学校）","仙台市泉区住吉台西4-1-2","http://www.city.sendai.jp/anzensuishin/kurashi/anzen/saigaitaisaku/hinanjo/doko.html","避難のための広場と建物を備えた施設で、市立の小学校、中学校、高等学校等が指定されています。","","/sendaicity-html/pict/80101_001.jpg","危機管理局防災計画課","大雨（洪水・土砂）、地震
※大雨時は初動で開設されません。","140.781391219447","38.329813833698","指定避難所"
"指定避難所（根白石中学校）","仙台市泉区根白石字東鹿野54","http://www.city.sendai.jp/anzensuishin/kurashi/anzen/saigaitaisaku/hinanjo/doko.html","避難のための広場と建物を備えた施設で、市立の小学校、中学校、高等学校等が指定されています。","","/sendaicity-html/pict/80101_001.jpg","危機管理局防災計画課","大雨（洪水・土砂）、地震","140.802032248163","38.3468087799673","指定避難所"
"指定避難所（館中学校）","仙台市泉区館6-17-1","http://www.city.sendai.jp/anzensuishin/kurashi/anzen/saigaitaisaku/hinanjo/doko.html","避難のための広場と建物を備えた施設で、市立の小学校、中学校、高等学校等が指定されています。","","/sendaicity-html/pict/80101_001.jpg","危機管理局防災計画課","大雨（洪水・土砂）、地震","140.79918760843","38.3174601376793","指定避難所"
"指定避難所（仙台商業高等学校）","仙台市泉区七北田字古内75","http://www.city.sendai.jp/anzensuishin/kurashi/anzen/saigaitaisaku/hinanjo/doko.html","避難のための広場と建物を備えた施設で、市立の小学校、中学校、高等学校等が指定されています。","","/sendaicity-html/pict/80101_001.jpg","危機管理局防災計画課","大雨（洪水・土砂）、地震","140.871637593275","38.3239022894174","指定避難所"
"指定避難所（市名坂小学校）","仙台市泉区市名坂字高玉1","http://www.city.sendai.jp/anzensuishin/kurashi/anzen/saigaitaisaku/hinanjo/doko.html","避難のための広場と建物を備えた施設で、市立の小学校、中学校、高等学校等が指定されています。","","/sendaicity-html/pict/80101_001.jpg","危機管理局防災計画課","大雨（洪水・土砂）（2階以上）、地震","140.890684981604","38.3179764383371","指定避難所"
"指定避難所（愛子小学校）","仙台市青葉区上愛子字新宮前1","http://www.city.sendai.jp/anzensuishin/kurashi/anzen/saigaitaisaku/hinanjo/doko.html","避難のための広場と建物を備えた施設で、市立の小学校、中学校、高等学校等が指定されています。","","/sendaicity-html/pict/80101_001.jpg","危機管理局防災計画課","大雨（洪水・土砂）、地震","140.758731873205","38.2686861024852","指定避難所"
"指定避難所（富沢小学校）","仙台市太白区富沢西4-12-1","http://www.city.sendai.jp/anzensuishin/kurashi/anzen/saigaitaisaku/hinanjo/doko.html","避難のための広場と建物を備えた施設で、市立の小学校、中学校、高等学校等が指定されています。","","/sendaicity-html/pict/80101_001.jpg","危機管理局防災計画課","大雨（洪水・土砂）（2階以上）、地震","140.862573258295","38.2096921768095","指定避難所"
"指定避難所（仙台大志高等学校）","仙台市宮城野区五輪1-4-10","http://www.city.sendai.jp/anzensuishin/kurashi/anzen/saigaitaisaku/hinanjo/doko.html","避難のための広場と建物を備えた施設で、市立の小学校、中学校、高等学校等が指定されています。","","/sendaicity-html/pict/80101_001.jpg","危機管理局防災計画課","大雨（洪水・土砂）、地震
※大雨時は初動で開設されません。","140.900674152479","38.2628856830454","指定避難所"
"指定避難所（岩切東コミュニティ・センター）","仙台市宮城野区岩切字青津目137-8","http://www.city.sendai.jp/anzensuishin/kurashi/anzen/saigaitaisaku/hinanjo/doko.html","避難のための広場と建物を備えた施設で、市立の小学校、中学校、高等学校等が指定されています。","","/sendaicity-html/pict/80101_001.jpg","危機管理局防災計画課","地震","140.953455540417","38.3065292336187","指定避難所"
"指定避難所（錦ケ丘小学校）","仙台市青葉区錦ケ丘7-28-1","http://www.city.sendai.jp/anzensuishin/kurashi/anzen/saigaitaisaku/hinanjo/doko.html","避難のための広場と建物を備えた施設で、市立の小学校、中学校、高等学校等が指定されています。","","/sendaicity-html/pict/80101_001.jpg","危機管理局防災計画課","大雨（洪水・土砂）、地震","140.760298025191","38.2565885871546","指定避難所"
"指定避難所（錦ケ丘中学校）","仙台市青葉区錦ケ丘1-1-7","http://www.city.sendai.jp/anzensuishin/kurashi/anzen/saigaitaisaku/hinanjo/doko.html","避難のための広場と建物を備えた施設で、市立の小学校、中学校、高等学校等が指定されています。","","/sendaicity-html/pict/80101_001.jpg","危機管理局防災計画課","大雨（洪水・土砂）、地震","140.763958059714","38.2635794468078","指定避難所"
"指定避難所（荒井小学校）","仙台市若林区伊在3-2-1","http://www.city.sendai.jp/anzensuishin/kurashi/anzen/saigaitaisaku/hinanjo/doko.html","避難のための広場と建物を備えた施設で、市立の小学校、中学校、高等学校等が指定されています。","","/sendaicity-html/pict/80101_001.jpg","危機管理局防災計画課","大雨（洪水・土砂）、地震、津波","140.9408531283","38.2472957165513","指定避難所"
"指定避難所（新田小学校）","仙台市宮城野区新田4-30-1","http://www.city.sendai.jp/anzensuishin/kurashi/anzen/saigaitaisaku/hinanjo/doko.html","避難のための広場と建物を備えた施設で、市立の小学校、中学校、高等学校等が指定されています。","","/sendaicity-html/pict/80101_001.jpg","危機管理局防災計画課","大雨（洪水・土砂）、地震","140.928620782501","38.2762773171649","指定避難所"
